[
  {
    "name": "Gua Musang",
    "lat": "4.878941",
    "lon": "101.966634"
  },
  {
    "name": "LAPAN TUPAI",
    "lat": "4.878941",
    "lon": "101.966634"
  },
  {
    "name": "Mentara Baru",
    "lat": "4.78934",
    "lon": "102.01179"
  },
  {
    "name": "Merapoh",
    "lat": "4.69314",
    "lon": "102.00328"
  },
  {
    "name": "Teluk Gunong",
    "lat": "4.63526",
    "lon": "101.99271"
  },
  {
    "name": "KUBANG RUSA",
    "lat": "4.69314",
    "lon": "102.00328"
  },
  {
    "name": "Sungai Temau",
    "lat": "4.49778",
    "lon": "101.9474"
  },
  {
    "name": "Chegar Perah",
    "lat": "4.49059",
    "lon": "101.94379"
  },
  {
    "name": "Aur Gading",
    "lat": "4.44072",
    "lon": "101.95489"
  },
  {
    "name": "Dura",
    "lat": "4.459419",
    "lon": "101.940204"
  },
  {
    "name": "Kg.Berkam",
    "lat": "4.20116",
    "lon": "102.05187"
  },
  {
    "name": "B.Betong",
    "lat": "4.39984",
    "lon": "101.92368"
  },
  {
    "name": "KG TELANG",
    "lat": "4.186634",
    "lon": "102.053791"
  },
  {
    "name": "Pdg.Tungku",
    "lat": "4.23397",
    "lon": "101.98883"
  },
  {
    "name": "KUALA LIPIS",
    "lat": "4.186634",
    "lon": "102.053791"
  }
]